[
  {
    "id": "res_1467",
    "name": "Warm Meals Service",
    "description": "Daily free warm meals provided to those in need.",
    "category": "services",
    "createdByUserId": "user_4571",
    "providerId": "charity_1234",
    "creator": {
      "id": "user_4571",
      "name": "Emily Johnson",
      "email": "emily.johnson@example.com"
    },
    "provider": {
      "id": "charity_1234",
      "name": "Cardiff Care Centre",
      "address": {
        "streetAddress": "12 High Street",
        "city": "Cardiff",
        "county": "Cardiff",
        "postalCode": "CF10 1AA"
      },
      "contactPhone": "+44 2920 123456",
      "verified": true,
      "location": {
        "latitude": 51.49455,
        "longitude": -3.186377
      },
      "openingHours": "9:00 AM - 6:00 PM"
    }
  },
  {
    "id": "res_5106",
    "name": "Clothing Donations",
    "description": "Seasonal clothing available for pickup.",
    "category": "goods",
    "createdByUserId": "user_9821",
    "providerId": "charity_5678",
    "creator": {
      "id": "user_9821",
      "name": "John Davies",
      "email": "john.davies@example.com"
    },
    "provider": {
      "id": "charity_5678",
      "name": "Helping Hands Charity",
      "address": {
        "streetAddress": "5 Queen Street",
        "city": "Cardiff",
        "county": "Cardiff",
        "postalCode": "CF10 2AR"
      },
      "contactPhone": "+44 2920 654321",
      "verified": true,
      "location": {
        "latitude": 51.527603,
        "longitude": -3.232947
      },
      "openingHours": "10:00 AM - 4:00 PM"
    }
  },
  {
    "id": "res_1984",
    "name": "Free Wi-Fi and Charging",
    "description": "Access to free Wi-Fi and phone charging stations.",
    "category": "services",
    "createdByUserId": "user_3482",
    "providerId": "business_2345",
    "creator": {
      "id": "user_3482",
      "name": "Laura Green",
      "email": "laura.green@example.com"
    },
    "provider": {
      "id": "business_2345",
      "name": "Tech Haven",
      "address": {
        "streetAddress": "22 Park Lane",
        "city": "Cardiff",
        "county": "Cardiff",
        "postalCode": "CF11 9BG"
      },
      "contactPhone": "+44 2920 333555",
      "verified": true,
      "location": {
        "latitude": 51.54085,
        "longitude": -3.178663
      },
      "openingHours": "8:00 AM - 8:00 PM"
    }
  },
  {
    "id": "res_7488",
    "name": "Vegetable Baskets",
    "description": "Free vegetable baskets from local farms.",
    "category": "goods",
    "createdByUserId": "user_6547",
    "providerId": "business_7890",
    "creator": {
      "id": "user_6547",
      "name": "Robert Hughes",
      "email": "robert.hughes@example.com"
    },
    "provider": {
      "id": "business_7890",
      "name": "Greenfield Farms",
      "address": {
        "streetAddress": "10 Market Street",
        "city": "Cardiff",
        "county": "Cardiff",
        "postalCode": "CF11 3ZR"
      },
      "contactPhone": "+44 2920 987654",
      "verified": true,
      "location": {
        "latitude": 51.516807,
        "longitude": -3.127014
      },
      "openingHours": "7:00 AM - 5:00 PM"
    }
  },
  {
    "id": "res_3402",
    "name": "Emergency Shelter",
    "description": "Temporary shelter available for those in crisis.",
    "category": "services",
    "createdByUserId": "user_8612",
    "providerId": "charity_3456",
    "creator": {
      "id": "user_8612",
      "name": "Sophia Morgan",
      "email": "sophia.morgan@example.com"
    },
    "provider": {
      "id": "charity_3456",
      "name": "Safe Haven Shelter",
      "address": {
        "streetAddress": "30 Cathedral Road",
        "city": "Cardiff",
        "county": "Cardiff",
        "postalCode": "CF11 9LL"
      },
      "contactPhone": "+44 2920 123789",
      "verified": true,
      "location": {
        "latitude": 51.498207,
        "longitude": -3.183087
      },
      "openingHours": "24/7"
    }
  },
  {
    "id": "res_5526",
    "name": "Free Health Checkups",
    "description": "A community-driven service to assist those in need.",
    "category": "goods",
    "createdByUserId": "user_2091",
    "providerId": "res_1984",
    "creator": {
      "id": "user_7555",
      "name": "Matthew Taylor",
      "email": "chloe.williams@example.com"
    },
    "provider": {
      "id": "charity_3557",
      "name": "SafeSteps Shelter",
      "address": {
        "streetAddress": "123 Example St",
        "addressLine2": null,
        "city": "Cardiff",
        "county": "Cardiff",
        "postalCode": "CF13 8AA"
      },
      "contactPhone": "+44 2920 940871",
      "verified": true,
      "location": {
        "latitude": 51.498033,
        "longitude": -3.225467
      },
      "openingHours": "24/7"
    }
  },
  {
    "id": "res_5610",
    "name": "Winter Jacket Donations",
    "description": "A community-driven service to assist those in need.",
    "category": "services",
    "createdByUserId": "user_8359",
    "providerId": "res_5526",
    "creator": {
      "id": "user_7426",
      "name": "James Hernandez",
      "email": "olivia.lee@example.com"
    },
    "provider": {
      "id": "business_5854",
      "name": "Hope Charity Foundation",
      "address": {
        "streetAddress": "123 Example St",
        "addressLine2": null,
        "city": "Cardiff",
        "county": "Cardiff",
        "postalCode": "CF45 2AA"
      },
      "contactPhone": "+44 2920 945098",
      "verified": true,
      "location": {
        "latitude": 51.547344,
        "longitude": -3.206976
      },
      "openingHours": "9:00 AM - 5:00 PM"
    }
  },
  {
    "id": "res_7377",
    "name": "Hot Meal Service",
    "description": "A community-driven service to assist those in need.",
    "category": "goods",
    "createdByUserId": "user_2286",
    "providerId": "res_5526",
    "creator": {
      "id": "user_9973",
      "name": "Grace Lewis",
      "email": "william.garcia@example.com"
    },
    "provider": {
      "id": "business_6336",
      "name": "SafeSteps Shelter",
      "address": {
        "streetAddress": "123 Example St",
        "addressLine2": null,
        "city": "Cardiff",
        "county": "Cardiff",
        "postalCode": "CF92 2AA"
      },
      "contactPhone": "+44 2920 163579",
      "verified": true,
      "location": {
        "latitude": 51.521285,
        "longitude": -3.15387
      },
      "openingHours": "24/7"
    }
  },
  {
    "id": "res_7497",
    "name": "Free Health Checkups",
    "description": "A community-driven service to assist those in need.",
    "category": "services",
    "createdByUserId": "user_2348",
    "providerId": "res_7377",
    "creator": {
      "id": "user_9491",
      "name": "Daniel Taylor",
      "email": "olivia.brown@example.com"
    },
    "provider": {
      "id": "business_8873",
      "name": "Bright Future Initiative",
      "address": {
        "streetAddress": "123 Example St",
        "addressLine2": null,
        "city": "Cardiff",
        "county": "Cardiff",
        "postalCode": "CF55 2AA"
      },
      "contactPhone": "+44 2920 161398",
      "verified": true,
      "location": {
        "latitude": 51.450425,
        "longitude": -3.178198
      },
      "openingHours": "9:00 AM - 5:00 PM"
    }
  },
  {
    "id": "res_5240",
    "name": "Employment Assistance",
    "description": "A community-driven service to assist those in need.",
    "category": "goods",
    "createdByUserId": "user_6697",
    "providerId": "res_1467",
    "creator": {
      "id": "user_8755",
      "name": "David Lewis",
      "email": "sarah.walker@example.com"
    },
    "provider": {
      "id": "business_5920",
      "name": "Hope Charity Foundation",
      "address": {
        "streetAddress": "123 Example St",
        "addressLine2": null,
        "city": "Cardiff",
        "county": "Cardiff",
        "postalCode": "CF47 4AA"
      },
      "contactPhone": "+44 2920 374877",
      "verified": true,
      "location": {
        "latitude": 51.492859,
        "longitude": -3.245931
      },
      "openingHours": "9:00 AM - 5:00 PM"
    }
  },
  {
    "id": "res_4569",
    "name": "Mental Health Support",
    "description": "A community-driven service to assist those in need.",
    "category": "goods",
    "createdByUserId": "user_9638",
    "providerId": "res_5610",
    "creator": {
      "id": "user_6924",
      "name": "Laura Davis",
      "email": "chloe.harris@example.com"
    },
    "provider": {
      "id": "charity_9806",
      "name": "SafeSteps Shelter",
      "address": {
        "streetAddress": "123 Example St",
        "addressLine2": null,
        "city": "Cardiff",
        "county": "Cardiff",
        "postalCode": "CF28 2AA"
      },
      "contactPhone": "+44 2920 399790",
      "verified": true,
      "location": {
        "latitude": 51.51125,
        "longitude": -3.222258
      },
      "openingHours": "24/7"
    }
  },
  {
    "id": "res_6849",
    "name": "Youth Skill Training",
    "description": "A community-driven service to assist those in need.",
    "category": "goods",
    "createdByUserId": "user_9657",
    "providerId": "res_7497",
    "creator": {
      "id": "user_3244",
      "name": "Hannah Anderson",
      "email": "john.robinson@example.com"
    },
    "provider": {
      "id": "business_6324",
      "name": "SafeSteps Shelter",
      "address": {
        "streetAddress": "123 Example St",
        "addressLine2": null,
        "city": "Cardiff",
        "county": "Cardiff",
        "postalCode": "CF82 1AA"
      },
      "contactPhone": "+44 2920 983389",
      "verified": true,
      "location": {
        "latitude": 51.527541,
        "longitude": -3.12805
      },
      "openingHours": "9:00 AM - 5:00 PM"
    }
  },
  {
    "id": "res_8610",
    "name": "Free Health Checkups",
    "description": "A community-driven service to assist those in need.",
    "category": "services",
    "createdByUserId": "user_7934",
    "providerId": "res_7488",
    "creator": {
      "id": "user_5663",
      "name": "Anthony Thomas",
      "email": "ethan.lewis@example.com"
    },
    "provider": {
      "id": "business_5978",
      "name": "Care Community Center",
      "address": {
        "streetAddress": "123 Example St",
        "addressLine2": null,
        "city": "Cardiff",
        "county": "Cardiff",
        "postalCode": "CF26 7AA"
      },
      "contactPhone": "+44 2920 774005",
      "verified": true,
      "location": {
        "latitude": 51.475654,
        "longitude": -3.183358
      },
      "openingHours": "24/7"
    }
  },
  {
    "id": "res_9882",
    "name": "Pet Food Giveaway",
    "description": "A community-driven service to assist those in need.",
    "category": "services",
    "createdByUserId": "user_7680",
    "providerId": "res_3402",
    "creator": {
      "id": "user_1724",
      "name": "Chris Wilson",
      "email": "robert.clark@example.com"
    },
    "provider": {
      "id": "business_7488",
      "name": "Care Community Center",
      "address": {
        "streetAddress": "123 Example St",
        "addressLine2": null,
        "city": "Cardiff",
        "county": "Cardiff",
        "postalCode": "CF63 6AA"
      },
      "contactPhone": "+44 2920 499131",
      "verified": true,
      "location": {
        "latitude": 51.457809,
        "longitude": -3.188041
      },
      "openingHours": "9:00 AM - 5:00 PM"
    }
  },
  {
    "id": "res_4122",
    "name": "Hot Meal Service",
    "description": "A community-driven service to assist those in need.",
    "category": "services",
    "createdByUserId": "user_4250",
    "providerId": "res_6849",
    "creator": {
      "id": "user_3447",
      "name": "Ashley Johnson",
      "email": "jessica.jones@example.com"
    },
    "provider": {
      "id": "business_8064",
      "name": "SafeSteps Shelter",
      "address": {
        "streetAddress": "123 Example St",
        "addressLine2": null,
        "city": "Cardiff",
        "county": "Cardiff",
        "postalCode": "CF75 1AA"
      },
      "contactPhone": "+44 2920 643245",
      "verified": true,
      "location": {
        "latitude": 51.482842,
        "longitude": -3.144703
      },
      "openingHours": "9:00 AM - 5:00 PM"
    }
  },
  {
    "id": "res_9972",
    "name": "Mental Health Support",
    "description": "A community-driven service to assist those in need.",
    "category": "services",
    "createdByUserId": "user_9268",
    "providerId": "res_7488",
    "creator": {
      "id": "user_5596",
      "name": "Laura Harris",
      "email": "samantha.walker@example.com"
    },
    "provider": {
      "id": "charity_2413",
      "name": "Hope Charity Foundation",
      "address": {
        "streetAddress": "123 Example St",
        "addressLine2": null,
        "city": "Cardiff",
        "county": "Cardiff",
        "postalCode": "CF53 7AA"
      },
      "contactPhone": "+44 2920 856883",
      "verified": true,
      "location": {
        "latitude": 51.473504,
        "longitude": -3.146338
      },
      "openingHours": "9:00 AM - 5:00 PM"
    }
  },
  {
    "id": "res_7857",
    "name": "Free Health Checkups",
    "description": "A community-driven service to assist those in need.",
    "category": "services",
    "createdByUserId": "user_2216",
    "providerId": "res_4569",
    "creator": {
      "id": "user_4347",
      "name": "Samantha Moore",
      "email": "andrew.smith@example.com"
    },
    "provider": {
      "id": "charity_8076",
      "name": "Goodwill Cardiff",
      "address": {
        "streetAddress": "123 Example St",
        "addressLine2": null,
        "city": "Cardiff",
        "county": "Cardiff",
        "postalCode": "CF49 5AA"
      },
      "contactPhone": "+44 2920 260645",
      "verified": true,
      "location": {
        "latitude": 51.495526,
        "longitude": -3.130751
      },
      "openingHours": "9:00 AM - 5:00 PM"
    }
  },
  {
    "id": "res_6905",
    "name": "Winter Jacket Donations",
    "description": "A community-driven service to assist those in need.",
    "category": "services",
    "createdByUserId": "user_2790",
    "providerId": "res_5240",
    "creator": {
      "id": "user_6992",
      "name": "Michael Jackson",
      "email": "chloe.lee@example.com"
    },
    "provider": {
      "id": "business_8427",
      "name": "Care Community Center",
      "address": {
        "streetAddress": "123 Example St",
        "addressLine2": null,
        "city": "Cardiff",
        "county": "Cardiff",
        "postalCode": "CF43 9AA"
      },
      "contactPhone": "+44 2920 952483",
      "verified": true,
      "location": {
        "latitude": 51.515004,
        "longitude": -3.190855
      },
      "openingHours": "24/7"
    }
  },
  {
    "id": "res_7909",
    "name": "Free Health Checkups",
    "description": "A community-driven service to assist those in need.",
    "category": "services",
    "createdByUserId": "user_1715",
    "providerId": "res_7488",
    "creator": {
      "id": "user_6888",
      "name": "Jessica Garcia",
      "email": "matthew.jackson@example.com"
    },
    "provider": {
      "id": "business_4397",
      "name": "Goodwill Cardiff",
      "address": {
        "streetAddress": "123 Example St",
        "addressLine2": null,
        "city": "Cardiff",
        "county": "Cardiff",
        "postalCode": "CF47 9AA"
      },
      "contactPhone": "+44 2920 388483",
      "verified": true,
      "location": {
        "latitude": 51.457228,
        "longitude": -3.233232
      },
      "openingHours": "24/7"
    }
  },
  {
    "id": "res_1871",
    "name": "Free Health Checkups",
    "description": "A community-driven service to assist those in need.",
    "category": "services",
    "createdByUserId": "user_4331",
    "providerId": "res_7488",
    "creator": {
      "id": "user_7772",
      "name": "Laura Johnson",
      "email": "robert.garcia@example.com"
    },
    "provider": {
      "id": "business_8645",
      "name": "SafeSteps Shelter",
      "address": {
        "streetAddress": "123 Example St",
        "addressLine2": null,
        "city": "Cardiff",
        "county": "Cardiff",
        "postalCode": "CF74 6AA"
      },
      "contactPhone": "+44 2920 315285",
      "verified": true,
      "location": {
        "latitude": 51.47144,
        "longitude": -3.229247
      },
      "openingHours": "24/7"
    }
  },
  {
    "id": "res_5705",
    "name": "Youth Skill Training",
    "description": "A community-driven service to assist those in need.",
    "category": "goods",
    "createdByUserId": "user_3999",
    "providerId": "res_5240",
    "creator": {
      "id": "user_2458",
      "name": "Olivia Hernandez",
      "email": "james.white@example.com"
    },
    "provider": {
      "id": "charity_3375",
      "name": "Hope Charity Foundation",
      "address": {
        "streetAddress": "123 Example St",
        "addressLine2": null,
        "city": "Cardiff",
        "county": "Cardiff",
        "postalCode": "CF87 6AA"
      },
      "contactPhone": "+44 2920 581329",
      "verified": true,
      "location": {
        "latitude": 51.455722,
        "longitude": -3.180598
      },
      "openingHours": "9:00 AM - 5:00 PM"
    }
  },
  {
    "id": "res_8648",
    "name": "Hygiene Kit Distribution",
    "description": "A community-driven service to assist those in need.",
    "category": "services",
    "createdByUserId": "user_2862",
    "providerId": "res_5106",
    "creator": {
      "id": "user_2577",
      "name": "John Martin",
      "email": "chris.young@example.com"
    },
    "provider": {
      "id": "business_3091",
      "name": "Hope Charity Foundation",
      "address": {
        "streetAddress": "123 Example St",
        "addressLine2": null,
        "city": "Cardiff",
        "county": "Cardiff",
        "postalCode": "CF86 8AA"
      },
      "contactPhone": "+44 2920 873821",
      "verified": true,
      "location": {
        "latitude": 51.461635,
        "longitude": -3.190636
      },
      "openingHours": "24/7"
    }
  },
  {
    "id": "res_1967",
    "name": "Furniture Recycling",
    "description": "A community-driven service to assist those in need.",
    "category": "services",
    "createdByUserId": "user_5166",
    "providerId": "res_4122",
    "creator": {
      "id": "user_3088",
      "name": "Hannah Miller",
      "email": "ava.garcia@example.com"
    },
    "provider": {
      "id": "charity_4494",
      "name": "SafeSteps Shelter",
      "address": {
        "streetAddress": "123 Example St",
        "addressLine2": null,
        "city": "Cardiff",
        "county": "Cardiff",
        "postalCode": "CF38 5AA"
      },
      "contactPhone": "+44 2920 735097",
      "verified": true,
      "location": {
        "latitude": 51.470674,
        "longitude": -3.233266
      },
      "openingHours": "9:00 AM - 5:00 PM"
    }
  },
  {
    "id": "res_8934",
    "name": "Mental Health Support",
    "description": "A community-driven service to assist those in need.",
    "category": "goods",
    "createdByUserId": "user_1016",
    "providerId": "res_6849",
    "creator": {
      "id": "user_5821",
      "name": "Sarah Hernandez",
      "email": "james.hernandez@example.com"
    },
    "provider": {
      "id": "business_4711",
      "name": "Care Community Center",
      "address": {
        "streetAddress": "123 Example St",
        "addressLine2": null,
        "city": "Cardiff",
        "county": "Cardiff",
        "postalCode": "CF40 9AA"
      },
      "contactPhone": "+44 2920 589378",
      "verified": true,
      "location": {
        "latitude": 51.513208,
        "longitude": -3.104052
      },
      "openingHours": "24/7"
    }
  },
  {
    "id": "res_7308",
    "name": "Winter Jacket Donations",
    "description": "A community-driven service to assist those in need.",
    "category": "services",
    "createdByUserId": "user_7830",
    "providerId": "res_7497",
    "creator": {
      "id": "user_7508",
      "name": "Matthew Young",
      "email": "ashley.williams@example.com"
    },
    "provider": {
      "id": "charity_2835",
      "name": "Care Community Center",
      "address": {
        "streetAddress": "123 Example St",
        "addressLine2": null,
        "city": "Cardiff",
        "county": "Cardiff",
        "postalCode": "CF61 2AA"
      },
      "contactPhone": "+44 2920 280084",
      "verified": true,
      "location": {
        "latitude": 51.515429,
        "longitude": -3.218487
      },
      "openingHours": "9:00 AM - 5:00 PM"
    }
  }
]